{
    "directed": false,
    "multigraph": false,
    "graph": {},
    "nodes": [
        {
            "id": {
                "lat": 31.7833,
                "lng": 35.2167,
                "name": "Jerusalem"
            }
        },
        {
            "id": {
                "lat": 32.08,
                "lng": 34.78,
                "name": "Yafa"
            }
        },
        {
            "id": {
                "lat": 32.8,
                "lng": 34.9833,
                "name": "Haifa"
            }
        },
        {
            "id": {
                "lat": 31.7978,
                "lng": 34.6503,
                "name": "Ashdod"
            }
        },
        {
            "id": {
                "lat": 31.2589,
                "lng": 34.7978,
                "name": "Beersheba"
            }
        },
        {
            "id": {
                "lat": 31.6658,
                "lng": 34.5664,
                "name": "Ashqelon"
            }
        },
        {
            "id": {
                "lat": 32.1858,
                "lng": 34.9077,
                "name": "Kefar Saba"
            }
        },
        {
            "id": {
                "lat": 32.45,
                "lng": 34.9167,
                "name": "Hadera"
            }
        },
        {
            "id": {
                "lat": 31.95,
                "lng": 34.9,
                "name": "Lod"
            }
        },
        {
            "id": {
                "lat": 32.7021,
                "lng": 35.2978,
                "name": "Nazareth"
            }
        },
        {
            "id": {
                "lat": 31.9318,
                "lng": 34.8736,
                "name": "Ramla"
            }
        },
        {
            "id": {
                "lat": 32.5158,
                "lng": 35.1525,
                "name": "Umm el Fahm"
            }
        },
        {
            "id": {
                "lat": 29.55,
                "lng": 34.95,
                "name": "Um Al Rashrash"
            }
        },
        {
            "id": {
                "lat": 31.3925,
                "lng": 34.7544,
                "name": "Rahat"
            }
        },
        {
            "id": {
                "lat": 33.0036,
                "lng": 35.0925,
                "name": "Nahariyya"
            }
        },
        {
            "id": {
                "lat": 32.9261,
                "lng": 35.0839,
                "name": "Akko"
            }
        },
        {
            "id": {
                "lat": 32.9,
                "lng": 35.2833,
                "name": "Karmiel"
            }
        },
        {
            "id": {
                "lat": 32.7897,
                "lng": 35.5247,
                "name": "Tiberias"
            }
        },
        {
            "id": {
                "lat": 32.2667,
                "lng": 35.0,
                "name": "Et Taiyiba"
            }
        },
        {
            "id": {
                "lat": 32.8667,
                "lng": 35.3,
                "name": "Sakhnin"
            }
        },
        {
            "id": {
                "lat": 31.78336,
                "lng": 35.23388,
                "name": "East Jerusalem"
            }
        },
        {
            "id": {
                "lat": 31.52935,
                "lng": 35.0938,
                "name": "Hebron"
            }
        },
        {
            "id": {
                "lat": 32.22111,
                "lng": 35.25444,
                "name": "Nablus"
            }
        },
        {
            "id": {
                "lat": 31.89964,
                "lng": 35.20422,
                "name": "Ramallah"
            }
        },
        {
            "id": {
                "lat": 31.70487,
                "lng": 35.20376,
                "name": "Bethlehem"
            }
        },
        {
            "id": {
                "lat": 31.86667,
                "lng": 35.45,
                "name": "Jericho"
            }
        },
        {
            "id": {
                "lat": 31.7,
                "lng": 35.11667,
                "name": "Battir"
            }
        },
        {
            "id": {
                "lat": 32.31156,
                "lng": 35.0269,
                "name": "Tulkarm"
            }
        },
        {
            "id": {
                "lat": 32.18966,
                "lng": 34.97063,
                "name": "Qalkilya"
            }
        },
        {
            "id": {
                "lat": 31.91001,
                "lng": 35.21645,
                "name": "Al Bira"
            }
        }
    ],
    "links": [
        {
            "driving_cost": 0,
            "walking_cost": 0,
            "source": {
                "lat": 31.7833,
                "lng": 35.2167,
                "name": "Jerusalem"
            },
            "target": {
                "lat": 31.7833,
                "lng": 35.2167,
                "name": "Jerusalem"
            }
        },
        {
            "driving_cost": 68378,
            "walking_cost": 66010,
            "source": {
                "lat": 31.7833,
                "lng": 35.2167,
                "name": "Jerusalem"
            },
            "target": {
                "lat": 32.08,
                "lng": 34.78,
                "name": "Yafa"
            }
        },
        {
            "driving_cost": 152822,
            "walking_cost": 142317,
            "source": {
                "lat": 31.7833,
                "lng": 35.2167,
                "name": "Jerusalem"
            },
            "target": {
                "lat": 32.8,
                "lng": 34.9833,
                "name": "Haifa"
            }
        },
        {
            "driving_cost": 64954,
            "walking_cost": 65880,
            "source": {
                "lat": 31.7833,
                "lng": 35.2167,
                "name": "Jerusalem"
            },
            "target": {
                "lat": 31.7978,
                "lng": 34.6503,
                "name": "Ashdod"
            }
        },
        {
            "driving_cost": 106631,
            "walking_cost": 91931,
            "source": {
                "lat": 31.7833,
                "lng": 35.2167,
                "name": "Jerusalem"
            },
            "target": {
                "lat": 31.2589,
                "lng": 34.7978,
                "name": "Beersheba"
            }
        },
        {
            "driving_cost": 80697,
            "walking_cost": 74785,
            "source": {
                "lat": 31.7833,
                "lng": 35.2167,
                "name": "Jerusalem"
            },
            "target": {
                "lat": 31.6658,
                "lng": 34.5664,
                "name": "Ashqelon"
            }
        },
        {
            "driving_cost": 75351,
            "walking_cost": 70255,
            "source": {
                "lat": 31.7833,
                "lng": 35.2167,
                "name": "Jerusalem"
            },
            "target": {
                "lat": 32.1858,
                "lng": 34.9077,
                "name": "Kefar Saba"
            }
        },
        {
            "driving_cost": 114916,
            "walking_cost": 99749,
            "source": {
                "lat": 31.7833,
                "lng": 35.2167,
                "name": "Jerusalem"
            },
            "target": {
                "lat": 32.45,
                "lng": 34.9167,
                "name": "Hadera"
            }
        },
        {
            "driving_cost": 47176,
            "walking_cost": 44611,
            "source": {
                "lat": 31.7833,
                "lng": 35.2167,
                "name": "Jerusalem"
            },
            "target": {
                "lat": 31.95,
                "lng": 34.9,
                "name": "Lod"
            }
        },
        {
            "driving_cost": 146195,
            "walking_cost": 134885,
            "source": {
                "lat": 31.7833,
                "lng": 35.2167,
                "name": "Jerusalem"
            },
            "target": {
                "lat": 32.7021,
                "lng": 35.2978,
                "name": "Nazareth"
            }
        },
        {
            "driving_cost": 45131,
            "walking_cost": 49009,
            "source": {
                "lat": 31.7833,
                "lng": 35.2167,
                "name": "Jerusalem"
            },
            "target": {
                "lat": 31.9318,
                "lng": 34.8736,
                "name": "Ramla"
            }
        },
        {
            "driving_cost": 120856,
            "walking_cost": 118730,
            "source": {
                "lat": 31.7833,
                "lng": 35.2167,
                "name": "Jerusalem"
            },
            "target": {
                "lat": 32.5158,
                "lng": 35.1525,
                "name": "Umm el Fahm"
            }
        },
        {
            "driving_cost": 317709,
            "walking_cost": 302266,
            "source": {
                "lat": 31.7833,
                "lng": 35.2167,
                "name": "Jerusalem"
            },
            "target": {
                "lat": 29.55,
                "lng": 34.95,
                "name": "Um Al Rashrash"
            }
        },
        {
            "driving_cost": 92685,
            "walking_cost": 79908,
            "source": {
                "lat": 31.7833,
                "lng": 35.2167,
                "name": "Jerusalem"
            },
            "target": {
                "lat": 31.3925,
                "lng": 34.7544,
                "name": "Rahat"
            }
        },
        {
            "driving_cost": 173177,
            "walking_cost": 174670,
            "source": {
                "lat": 31.7833,
                "lng": 35.2167,
                "name": "Jerusalem"
            },
            "target": {
                "lat": 33.0036,
                "lng": 35.0925,
                "name": "Nahariyya"
            }
        },
        {
            "driving_cost": 164672,
            "walking_cost": 165971,
            "source": {
                "lat": 31.7833,
                "lng": 35.2167,
                "name": "Jerusalem"
            },
            "target": {
                "lat": 32.9261,
                "lng": 35.0839,
                "name": "Akko"
            }
        },
        {
            "driving_cost": 175329,
            "walking_cost": 166586,
            "source": {
                "lat": 31.7833,
                "lng": 35.2167,
                "name": "Jerusalem"
            },
            "target": {
                "lat": 32.9,
                "lng": 35.2833,
                "name": "Karmiel"
            }
        },
        {
            "driving_cost": 178852,
            "walking_cost": 149454,
            "source": {
                "lat": 31.7833,
                "lng": 35.2167,
                "name": "Jerusalem"
            },
            "target": {
                "lat": 32.7897,
                "lng": 35.5247,
                "name": "Tiberias"
            }
        },
        {
            "driving_cost": 82903,
            "walking_cost": 79091,
            "source": {
                "lat": 31.7833,
                "lng": 35.2167,
                "name": "Jerusalem"
            },
            "target": {
                "lat": 32.2667,
                "lng": 35.0,
                "name": "Et Taiyiba"
            }
        },
        {
            "driving_cost": 170743,
            "walking_cost": 160571,
            "source": {
                "lat": 31.7833,
                "lng": 35.2167,
                "name": "Jerusalem"
            },
            "target": {
                "lat": 32.8667,
                "lng": 35.3,
                "name": "Sakhnin"
            }
        },
        {
            "driving_cost": 2847,
            "walking_cost": 1918,
            "source": {
                "lat": 31.7833,
                "lng": 35.2167,
                "name": "Jerusalem"
            },
            "target": {
                "lat": 31.78336,
                "lng": 35.23388,
                "name": "East Jerusalem"
            }
        },
        {
            "driving_cost": 120176,
            "walking_cost": 68461,
            "source": {
                "lat": 31.7833,
                "lng": 35.2167,
                "name": "Jerusalem"
            },
            "target": {
                "lat": 32.22111,
                "lng": 35.25444,
                "name": "Nablus"
            }
        },
        {
            "driving_cost": 16720,
            "walking_cost": 15665,
            "source": {
                "lat": 31.7833,
                "lng": 35.2167,
                "name": "Jerusalem"
            },
            "target": {
                "lat": 31.89964,
                "lng": 35.20422,
                "name": "Ramallah"
            }
        },
        {
            "driving_cost": 13528,
            "walking_cost": 9849,
            "source": {
                "lat": 31.7833,
                "lng": 35.2167,
                "name": "Jerusalem"
            },
            "target": {
                "lat": 31.70487,
                "lng": 35.20376,
                "name": "Bethlehem"
            }
        },
        {
            "driving_cost": 43120,
            "walking_cost": 35435,
            "source": {
                "lat": 31.7833,
                "lng": 35.2167,
                "name": "Jerusalem"
            },
            "target": {
                "lat": 31.86667,
                "lng": 35.45,
                "name": "Jericho"
            }
        },
        {
            "driving_cost": 20872,
            "walking_cost": 19996,
            "source": {
                "lat": 31.7833,
                "lng": 35.2167,
                "name": "Jerusalem"
            },
            "target": {
                "lat": 31.7,
                "lng": 35.11667,
                "name": "Battir"
            }
        },
        {
            "driving_cost": 89700,
            "walking_cost": 85889,
            "source": {
                "lat": 31.7833,
                "lng": 35.2167,
                "name": "Jerusalem"
            },
            "target": {
                "lat": 32.31156,
                "lng": 35.0269,
                "name": "Tulkarm"
            }
        },
        {
            "driving_cost": 82073,
            "walking_cost": 75348,
            "source": {
                "lat": 31.7833,
                "lng": 35.2167,
                "name": "Jerusalem"
            },
            "target": {
                "lat": 32.18966,
                "lng": 34.97063,
                "name": "Qalkilya"
            }
        },
        {
            "driving_cost": 17699,
            "walking_cost": 16928,
            "source": {
                "lat": 31.7833,
                "lng": 35.2167,
                "name": "Jerusalem"
            },
            "target": {
                "lat": 31.91001,
                "lng": 35.21645,
                "name": "Al Bira"
            }
        },
        {
            "driving_cost": 0,
            "walking_cost": 0,
            "source": {
                "lat": 32.08,
                "lng": 34.78,
                "name": "Yafa"
            },
            "target": {
                "lat": 32.08,
                "lng": 34.78,
                "name": "Yafa"
            }
        },
        {
            "driving_cost": 93789,
            "walking_cost": 91634,
            "source": {
                "lat": 32.08,
                "lng": 34.78,
                "name": "Yafa"
            },
            "target": {
                "lat": 32.8,
                "lng": 34.9833,
                "name": "Haifa"
            }
        },
        {
            "driving_cost": 40880,
            "walking_cost": 40269,
            "source": {
                "lat": 32.08,
                "lng": 34.78,
                "name": "Yafa"
            },
            "target": {
                "lat": 31.7978,
                "lng": 34.6503,
                "name": "Ashdod"
            }
        },
        {
            "driving_cost": 107750,
            "walking_cost": 101712,
            "source": {
                "lat": 32.08,
                "lng": 34.78,
                "name": "Yafa"
            },
            "target": {
                "lat": 31.2589,
                "lng": 34.7978,
                "name": "Beersheba"
            }
        },
        {
            "driving_cost": 57394,
            "walking_cost": 58448,
            "source": {
                "lat": 32.08,
                "lng": 34.78,
                "name": "Yafa"
            },
            "target": {
                "lat": 31.6658,
                "lng": 34.5664,
                "name": "Ashqelon"
            }
        },
        {
            "driving_cost": 25631,
            "walking_cost": 20402,
            "source": {
                "lat": 32.08,
                "lng": 34.78,
                "name": "Yafa"
            },
            "target": {
                "lat": 32.1858,
                "lng": 34.9077,
                "name": "Kefar Saba"
            }
        },
        {
            "driving_cost": 51043,
            "walking_cost": 49065,
            "source": {
                "lat": 32.08,
                "lng": 34.78,
                "name": "Yafa"
            },
            "target": {
                "lat": 32.45,
                "lng": 34.9167,
                "name": "Hadera"
            }
        },
        {
            "driving_cost": 23489,
            "walking_cost": 23376,
            "source": {
                "lat": 32.08,
                "lng": 34.78,
                "name": "Yafa"
            },
            "target": {
                "lat": 31.95,
                "lng": 34.9,
                "name": "Lod"
            }
        },
        {
            "driving_cost": 105739,
            "walking_cost": 99126,
            "source": {
                "lat": 32.08,
                "lng": 34.78,
                "name": "Yafa"
            },
            "target": {
                "lat": 32.7021,
                "lng": 35.2978,
                "name": "Nazareth"
            }
        },
        {
            "driving_cost": 21768,
            "walking_cost": 20673,
            "source": {
                "lat": 32.08,
                "lng": 34.78,
                "name": "Yafa"
            },
            "target": {
                "lat": 31.9318,
                "lng": 34.8736,
                "name": "Ramla"
            }
        },
        {
            "driving_cost": 80400,
            "walking_cost": 71796,
            "source": {
                "lat": 32.08,
                "lng": 34.78,
                "name": "Yafa"
            },
            "target": {
                "lat": 32.5158,
                "lng": 35.1525,
                "name": "Umm el Fahm"
            }
        },
        {
            "driving_cost": 342957,
            "walking_cost": 329995,
            "source": {
                "lat": 32.08,
                "lng": 34.78,
                "name": "Yafa"
            },
            "target": {
                "lat": 29.55,
                "lng": 34.95,
                "name": "Um Al Rashrash"
            }
        },
        {
            "driving_cost": 93804,
            "walking_cost": 87798,
            "source": {
                "lat": 32.08,
                "lng": 34.78,
                "name": "Yafa"
            },
            "target": {
                "lat": 31.3925,
                "lng": 34.7544,
                "name": "Rahat"
            }
        },
        {
            "driving_cost": 123138,
            "walking_cost": 124807,
            "source": {
                "lat": 32.08,
                "lng": 34.78,
                "name": "Yafa"
            },
            "target": {
                "lat": 33.0036,
                "lng": 35.0925,
                "name": "Nahariyya"
            }
        },
        {
            "driving_cost": 114633,
            "walking_cost": 116107,
            "source": {
                "lat": 32.08,
                "lng": 34.78,
                "name": "Yafa"
            },
            "target": {
                "lat": 32.9261,
                "lng": 35.0839,
                "name": "Akko"
            }
        },
        {
            "driving_cost": 134873,
            "walking_cost": 127021,
            "source": {
                "lat": 32.08,
                "lng": 34.78,
                "name": "Yafa"
            },
            "target": {
                "lat": 32.9,
                "lng": 35.2833,
                "name": "Karmiel"
            }
        },
        {
            "driving_cost": 138396,
            "walking_cost": 127227,
            "source": {
                "lat": 32.08,
                "lng": 34.78,
                "name": "Yafa"
            },
            "target": {
                "lat": 32.7897,
                "lng": 35.5247,
                "name": "Tiberias"
            }
        },
        {
            "driving_cost": 42447,
            "walking_cost": 34497,
            "source": {
                "lat": 32.08,
                "lng": 34.78,
                "name": "Yafa"
            },
            "target": {
                "lat": 32.2667,
                "lng": 35.0,
                "name": "Et Taiyiba"
            }
        },
        {
            "driving_cost": 130287,
            "walking_cost": 121400,
            "source": {
                "lat": 32.08,
                "lng": 34.78,
                "name": "Yafa"
            },
            "target": {
                "lat": 32.8667,
                "lng": 35.3,
                "name": "Sakhnin"
            }
        },
        {
            "driving_cost": 67509,
            "walking_cost": 66465,
            "source": {
                "lat": 32.08,
                "lng": 34.78,
                "name": "Yafa"
            },
            "target": {
                "lat": 31.78336,
                "lng": 35.23388,
                "name": "East Jerusalem"
            }
        },
        {
            "driving_cost": 79720,
            "walking_cost": 64671,
            "source": {
                "lat": 32.08,
                "lng": 34.78,
                "name": "Yafa"
            },
            "target": {
                "lat": 32.22111,
                "lng": 35.25444,
                "name": "Nablus"
            }
        },
        {
            "driving_cost": 62761,
            "walking_cost": 62625,
            "source": {
                "lat": 32.08,
                "lng": 34.78,
                "name": "Yafa"
            },
            "target": {
                "lat": 31.89964,
                "lng": 35.20422,
                "name": "Ramallah"
            }
        },
        {
            "driving_cost": 76598,
            "walking_cost": 74282,
            "source": {
                "lat": 32.08,
                "lng": 34.78,
                "name": "Yafa"
            },
            "target": {
                "lat": 31.70487,
                "lng": 35.20376,
                "name": "Bethlehem"
            }
        },
        {
            "driving_cost": 99722,
            "walking_cost": 91491,
            "source": {
                "lat": 32.08,
                "lng": 34.78,
                "name": "Yafa"
            },
            "target": {
                "lat": 31.86667,
                "lng": 35.45,
                "name": "Jericho"
            }
        },
        {
            "driving_cost": 71502,
            "walking_cost": 66047,
            "source": {
                "lat": 32.08,
                "lng": 34.78,
                "name": "Yafa"
            },
            "target": {
                "lat": 31.7,
                "lng": 35.11667,
                "name": "Battir"
            }
        },
        {
            "driving_cost": 49244,
            "walking_cost": 41294,
            "source": {
                "lat": 32.08,
                "lng": 34.78,
                "name": "Yafa"
            },
            "target": {
                "lat": 32.31156,
                "lng": 35.0269,
                "name": "Tulkarm"
            }
        },
        {
            "driving_cost": 42380,
            "walking_cost": 31684,
            "source": {
                "lat": 32.08,
                "lng": 34.78,
                "name": "Yafa"
            },
            "target": {
                "lat": 32.18966,
                "lng": 34.97063,
                "name": "Qalkilya"
            }
        },
        {
            "driving_cost": 63741,
            "walking_cost": 61748,
            "source": {
                "lat": 32.08,
                "lng": 34.78,
                "name": "Yafa"
            },
            "target": {
                "lat": 31.91001,
                "lng": 35.21645,
                "name": "Al Bira"
            }
        },
        {
            "driving_cost": 0,
            "walking_cost": 0,
            "source": {
                "lat": 32.8,
                "lng": 34.9833,
                "name": "Haifa"
            },
            "target": {
                "lat": 32.8,
                "lng": 34.9833,
                "name": "Haifa"
            }
        },
        {
            "driving_cost": 131249,
            "walking_cost": 131646,
            "source": {
                "lat": 32.8,
                "lng": 34.9833,
                "name": "Haifa"
            },
            "target": {
                "lat": 31.7978,
                "lng": 34.6503,
                "name": "Ashdod"
            }
        },
        {
            "driving_cost": 193446,
            "walking_cost": 187336,
            "source": {
                "lat": 32.8,
                "lng": 34.9833,
                "name": "Haifa"
            },
            "target": {
                "lat": 31.2589,
                "lng": 34.7978,
                "name": "Beersheba"
            }
        },
        {
            "driving_cost": 147763,
            "walking_cost": 148696,
            "source": {
                "lat": 32.8,
                "lng": 34.9833,
                "name": "Haifa"
            },
            "target": {
                "lat": 31.6658,
                "lng": 34.5664,
                "name": "Ashqelon"
            }
        },
        {
            "driving_cost": 87435,
            "walking_cost": 74304,
            "source": {
                "lat": 32.8,
                "lng": 34.9833,
                "name": "Haifa"
            },
            "target": {
                "lat": 32.1858,
                "lng": 34.9077,
                "name": "Kefar Saba"
            }
        },
        {
            "driving_cost": 48562,
            "walking_cost": 43743,
            "source": {
                "lat": 32.8,
                "lng": 34.9833,
                "name": "Haifa"
            },
            "target": {
                "lat": 32.45,
                "lng": 34.9167,
                "name": "Hadera"
            }
        },
        {
            "driving_cost": 113925,
            "walking_cost": 100524,
            "source": {
                "lat": 32.8,
                "lng": 34.9833,
                "name": "Haifa"
            },
            "target": {
                "lat": 31.95,
                "lng": 34.9,
                "name": "Lod"
            }
        },
        {
            "driving_cost": 43497,
            "walking_cost": 38605,
            "source": {
                "lat": 32.8,
                "lng": 34.9833,
                "name": "Haifa"
            },
            "target": {
                "lat": 32.7021,
                "lng": 35.2978,
                "name": "Nazareth"
            }
        },
        {
            "driving_cost": 112137,
            "walking_cost": 104323,
            "source": {
                "lat": 32.8,
                "lng": 34.9833,
                "name": "Haifa"
            },
            "target": {
                "lat": 31.9318,
                "lng": 34.8736,
                "name": "Ramla"
            }
        },
        {
            "driving_cost": 46566,
            "walking_cost": 46574,
            "source": {
                "lat": 32.8,
                "lng": 34.9833,
                "name": "Haifa"
            },
            "target": {
                "lat": 32.5158,
                "lng": 35.1525,
                "name": "Umm el Fahm"
            }
        },
        {
            "driving_cost": 428653,
            "walking_cost": 415618,
            "source": {
                "lat": 32.8,
                "lng": 34.9833,
                "name": "Haifa"
            },
            "target": {
                "lat": 29.55,
                "lng": 34.95,
                "name": "Um Al Rashrash"
            }
        },
        {
            "driving_cost": 179500,
            "walking_cost": 173421,
            "source": {
                "lat": 32.8,
                "lng": 34.9833,
                "name": "Haifa"
            },
            "target": {
                "lat": 31.3925,
                "lng": 34.7544,
                "name": "Rahat"
            }
        },
        {
            "driving_cost": 34724,
            "walking_cost": 33159,
            "source": {
                "lat": 32.8,
                "lng": 34.9833,
                "name": "Haifa"
            },
            "target": {
                "lat": 33.0036,
                "lng": 35.0925,
                "name": "Nahariyya"
            }
        },
        {
            "driving_cost": 26219,
            "walking_cost": 24459,
            "source": {
                "lat": 32.8,
                "lng": 34.9833,
                "name": "Haifa"
            },
            "target": {
                "lat": 32.9261,
                "lng": 35.0839,
                "name": "Akko"
            }
        },
        {
            "driving_cost": 45978,
            "walking_cost": 42849,
            "source": {
                "lat": 32.8,
                "lng": 34.9833,
                "name": "Haifa"
            },
            "target": {
                "lat": 32.9,
                "lng": 35.2833,
                "name": "Karmiel"
            }
        },
        {
            "driving_cost": 66828,
            "walking_cost": 59955,
            "source": {
                "lat": 32.8,
                "lng": 34.9833,
                "name": "Haifa"
            },
            "target": {
                "lat": 32.7897,
                "lng": 35.5247,
                "name": "Tiberias"
            }
        },
        {
            "driving_cost": 76452,
            "walking_cost": 71017,
            "source": {
                "lat": 32.8,
                "lng": 34.9833,
                "name": "Haifa"
            },
            "target": {
                "lat": 32.2667,
                "lng": 35.0,
                "name": "Et Taiyiba"
            }
        },
        {
            "driving_cost": 43413,
            "walking_cost": 37246,
            "source": {
                "lat": 32.8,
                "lng": 34.9833,
                "name": "Haifa"
            },
            "target": {
                "lat": 32.8667,
                "lng": 35.3,
                "name": "Sakhnin"
            }
        },
        {
            "driving_cost": 153205,
            "walking_cost": 142710,
            "source": {
                "lat": 32.8,
                "lng": 34.9833,
                "name": "Haifa"
            },
            "target": {
                "lat": 31.78336,
                "lng": 35.23388,
                "name": "East Jerusalem"
            }
        },
        {
            "driving_cost": 109257,
            "walking_cost": 94559,
            "source": {
                "lat": 32.8,
                "lng": 34.9833,
                "name": "Haifa"
            },
            "target": {
                "lat": 32.22111,
                "lng": 35.25444,
                "name": "Nablus"
            }
        },
        {
            "driving_cost": 148506,
            "walking_cost": 134824,
            "source": {
                "lat": 32.8,
                "lng": 34.9833,
                "name": "Haifa"
            },
            "target": {
                "lat": 31.89964,
                "lng": 35.20422,
                "name": "Ramallah"
            }
        },
        {
            "driving_cost": 162294,
            "walking_cost": 151898,
            "source": {
                "lat": 32.8,
                "lng": 34.9833,
                "name": "Haifa"
            },
            "target": {
                "lat": 31.70487,
                "lng": 35.20376,
                "name": "Bethlehem"
            }
        },
        {
            "driving_cost": 185418,
            "walking_cost": 167702,
            "source": {
                "lat": 32.8,
                "lng": 34.9833,
                "name": "Haifa"
            },
            "target": {
                "lat": 31.86667,
                "lng": 35.45,
                "name": "Jericho"
            }
        },
        {
            "driving_cost": 157199,
            "walking_cost": 148029,
            "source": {
                "lat": 32.8,
                "lng": 34.9833,
                "name": "Haifa"
            },
            "target": {
                "lat": 31.7,
                "lng": 35.11667,
                "name": "Battir"
            }
        },
        {
            "driving_cost": 78781,
            "walking_cost": 70063,
            "source": {
                "lat": 32.8,
                "lng": 34.9833,
                "name": "Haifa"
            },
            "target": {
                "lat": 32.31156,
                "lng": 35.0269,
                "name": "Tulkarm"
            }
        },
        {
            "driving_cost": 94708,
            "walking_cost": 80690,
            "source": {
                "lat": 32.8,
                "lng": 34.9833,
                "name": "Haifa"
            },
            "target": {
                "lat": 32.18966,
                "lng": 34.97063,
                "name": "Qalkilya"
            }
        },
        {
            "driving_cost": 149486,
            "walking_cost": 132870,
            "source": {
                "lat": 32.8,
                "lng": 34.9833,
                "name": "Haifa"
            },
            "target": {
                "lat": 31.91001,
                "lng": 35.21645,
                "name": "Al Bira"
            }
        },
        {
            "driving_cost": 0,
            "walking_cost": 0,
            "source": {
                "lat": 31.7978,
                "lng": 34.6503,
                "name": "Ashdod"
            },
            "target": {
                "lat": 31.7978,
                "lng": 34.6503,
                "name": "Ashdod"
            }
        },
        {
            "driving_cost": 85464,
            "walking_cost": 72337,
            "source": {
                "lat": 31.7978,
                "lng": 34.6503,
                "name": "Ashdod"
            },
            "target": {
                "lat": 31.2589,
                "lng": 34.7978,
                "name": "Beersheba"
            }
        },
        {
            "driving_cost": 21894,
            "walking_cost": 21576,
            "source": {
                "lat": 31.7978,
                "lng": 34.6503,
                "name": "Ashdod"
            },
            "target": {
                "lat": 31.6658,
                "lng": 34.5664,
                "name": "Ashqelon"
            }
        },
        {
            "driving_cost": 55835,
            "walking_cost": 59787,
            "source": {
                "lat": 31.7978,
                "lng": 34.6503,
                "name": "Ashdod"
            },
            "target": {
                "lat": 32.1858,
                "lng": 34.9077,
                "name": "Kefar Saba"
            }
        },
        {
            "driving_cost": 87736,
            "walking_cost": 89226,
            "source": {
                "lat": 31.7978,
                "lng": 34.6503,
                "name": "Ashdod"
            },
            "target": {
                "lat": 32.45,
                "lng": 34.9167,
                "name": "Hadera"
            }
        },
        {
            "driving_cost": 45353,
            "walking_cost": 34579,
            "source": {
                "lat": 31.7978,
                "lng": 34.6503,
                "name": "Ashdod"
            },
            "target": {
                "lat": 31.95,
                "lng": 34.9,
                "name": "Lod"
            }
        },
        {
            "driving_cost": 136028,
            "walking_cost": 137936,
            "source": {
                "lat": 31.7978,
                "lng": 34.6503,
                "name": "Ashdod"
            },
            "target": {
                "lat": 32.7021,
                "lng": 35.2978,
                "name": "Nazareth"
            }
        },
        {
            "driving_cost": 37373,
            "walking_cost": 30787,
            "source": {
                "lat": 31.7978,
                "lng": 34.6503,
                "name": "Ashdod"
            },
            "target": {
                "lat": 31.9318,
                "lng": 34.8736,
                "name": "Ramla"
            }
        },
        {
            "driving_cost": 110689,
            "walking_cost": 110606,
            "source": {
                "lat": 31.7978,
                "lng": 34.6503,
                "name": "Ashdod"
            },
            "target": {
                "lat": 32.5158,
                "lng": 35.1525,
                "name": "Umm el Fahm"
            }
        },
        {
            "driving_cost": 320671,
            "walking_cost": 300619,
            "source": {
                "lat": 31.7978,
                "lng": 34.6503,
                "name": "Ashdod"
            },
            "target": {
                "lat": 29.55,
                "lng": 34.95,
                "name": "Um Al Rashrash"
            }
        },
        {
            "driving_cost": 71518,
            "walking_cost": 58422,
            "source": {
                "lat": 31.7978,
                "lng": 34.6503,
                "name": "Ashdod"
            },
            "target": {
                "lat": 31.3925,
                "lng": 34.7544,
                "name": "Rahat"
            }
        },
        {
            "driving_cost": 163010,
            "walking_cost": 164968,
            "source": {
                "lat": 31.7978,
                "lng": 34.6503,
                "name": "Ashdod"
            },
            "target": {
                "lat": 33.0036,
                "lng": 35.0925,
                "name": "Nahariyya"
            }
        },
        {
            "driving_cost": 154505,
            "walking_cost": 156268,
            "source": {
                "lat": 31.7978,
                "lng": 34.6503,
                "name": "Ashdod"
            },
            "target": {
                "lat": 32.9261,
                "lng": 35.0839,
                "name": "Akko"
            }
        },
        {
            "driving_cost": 165161,
            "walking_cost": 165916,
            "source": {
                "lat": 31.7978,
                "lng": 34.6503,
                "name": "Ashdod"
            },
            "target": {
                "lat": 32.9,
                "lng": 35.2833,
                "name": "Karmiel"
            }
        },
        {
            "driving_cost": 168685,
            "walking_cost": 166037,
            "source": {
                "lat": 31.7978,
                "lng": 34.6503,
                "name": "Ashdod"
            },
            "target": {
                "lat": 32.7897,
                "lng": 35.5247,
                "name": "Tiberias"
            }
        },
        {
            "driving_cost": 72736,
            "walking_cost": 71701,
            "source": {
                "lat": 31.7978,
                "lng": 34.6503,
                "name": "Ashdod"
            },
            "target": {
                "lat": 32.2667,
                "lng": 35.0,
                "name": "Et Taiyiba"
            }
        },
        {
            "driving_cost": 160576,
            "walking_cost": 160296,
            "source": {
                "lat": 31.7978,
                "lng": 34.6503,
                "name": "Ashdod"
            },
            "target": {
                "lat": 32.8667,
                "lng": 35.3,
                "name": "Sakhnin"
            }
        },
        {
            "driving_cost": 65755,
            "walking_cost": 67419,
            "source": {
                "lat": 31.7978,
                "lng": 34.6503,
                "name": "Ashdod"
            },
            "target": {
                "lat": 31.78336,
                "lng": 35.23388,
                "name": "East Jerusalem"
            }
        },
        {
            "driving_cost": 110009,
            "walking_cost": 101876,
            "source": {
                "lat": 31.7978,
                "lng": 34.6503,
                "name": "Ashdod"
            },
            "target": {
                "lat": 32.22111,
                "lng": 35.25444,
                "name": "Nablus"
            }
        },
        {
            "driving_cost": 76076,
            "walking_cost": 75534,
            "source": {
                "lat": 31.7978,
                "lng": 34.6503,
                "name": "Ashdod"
            },
            "target": {
                "lat": 31.89964,
                "lng": 35.20422,
                "name": "Ramallah"
            }
        },
        {
            "driving_cost": 74844,
            "walking_cost": 67714,
            "source": {
                "lat": 31.7978,
                "lng": 34.6503,
                "name": "Ashdod"
            },
            "target": {
                "lat": 31.70487,
                "lng": 35.20376,
                "name": "Bethlehem"
            }
        },
        {
            "driving_cost": 97968,
            "walking_cost": 100135,
            "source": {
                "lat": 31.7978,
                "lng": 34.6503,
                "name": "Ashdod"
            },
            "target": {
                "lat": 31.86667,
                "lng": 35.45,
                "name": "Jericho"
            }
        },
        {
            "driving_cost": 63030,
            "walking_cost": 59479,
            "source": {
                "lat": 31.7978,
                "lng": 34.6503,
                "name": "Ashdod"
            },
            "target": {
                "lat": 31.7,
                "lng": 35.11667,
                "name": "Battir"
            }
        },
        {
            "driving_cost": 79532,
            "walking_cost": 78498,
            "source": {
                "lat": 31.7978,
                "lng": 34.6503,
                "name": "Ashdod"
            },
            "target": {
                "lat": 32.31156,
                "lng": 35.0269,
                "name": "Tulkarm"
            }
        },
        {
            "driving_cost": 71905,
            "walking_cost": 68888,
            "source": {
                "lat": 31.7978,
                "lng": 34.6503,
                "name": "Ashdod"
            },
            "target": {
                "lat": 32.18966,
                "lng": 34.97063,
                "name": "Qalkilya"
            }
        },
        {
            "driving_cost": 77055,
            "walking_cost": 76798,
            "source": {
                "lat": 31.7978,
                "lng": 34.6503,
                "name": "Ashdod"
            },
            "target": {
                "lat": 31.91001,
                "lng": 35.21645,
                "name": "Al Bira"
            }
        },
        {
            "driving_cost": 0,
            "walking_cost": 0,
            "source": {
                "lat": 31.2589,
                "lng": 34.7978,
                "name": "Beersheba"
            },
            "target": {
                "lat": 31.2589,
                "lng": 34.7978,
                "name": "Beersheba"
            }
        },
        {
            "driving_cost": 63691,
            "walking_cost": 60402,
            "source": {
                "lat": 31.2589,
                "lng": 34.7978,
                "name": "Beersheba"
            },
            "target": {
                "lat": 31.6658,
                "lng": 34.5664,
                "name": "Ashqelon"
            }
        },
        {
            "driving_cost": 115319,
            "walking_cost": 115326,
            "source": {
                "lat": 31.2589,
                "lng": 34.7978,
                "name": "Beersheba"
            },
            "target": {
                "lat": 32.1858,
                "lng": 34.9077,
                "name": "Kefar Saba"
            }
        },
        {
            "driving_cost": 154885,
            "walking_cost": 144764,
            "source": {
                "lat": 31.2589,
                "lng": 34.7978,
                "name": "Beersheba"
            },
            "target": {
                "lat": 32.45,
                "lng": 34.9167,
                "name": "Hadera"
            }
        },
        {
            "driving_cost": 87145,
            "walking_cost": 87733,
            "source": {
                "lat": 31.2589,
                "lng": 34.7978,
                "name": "Beersheba"
            },
            "target": {
                "lat": 31.95,
                "lng": 34.9,
                "name": "Lod"
            }
        },
        {
            "driving_cost": 186164,
            "walking_cost": 193475,
            "source": {
                "lat": 31.2589,
                "lng": 34.7978,
                "name": "Beersheba"
            },
            "target": {
                "lat": 32.7021,
                "lng": 35.2978,
                "name": "Nazareth"
            }
        },
        {
            "driving_cost": 80234,
            "walking_cost": 83941,
            "source": {
                "lat": 31.2589,
                "lng": 34.7978,
                "name": "Beersheba"
            },
            "target": {
                "lat": 31.9318,
                "lng": 34.8736,
                "name": "Ramla"
            }
        },
        {
            "driving_cost": 160825,
            "walking_cost": 166145,
            "source": {
                "lat": 31.2589,
                "lng": 34.7978,
                "name": "Beersheba"
            },
            "target": {
                "lat": 32.5158,
                "lng": 35.1525,
                "name": "Umm el Fahm"
            }
        },
        {
            "driving_cost": 238607,
            "walking_cost": 228308,
            "source": {
                "lat": 31.2589,
                "lng": 34.7978,
                "name": "Beersheba"
            },
            "target": {
                "lat": 29.55,
                "lng": 34.95,
                "name": "Um Al Rashrash"
            }
        },
        {
            "driving_cost": 18843,
            "walking_cost": 18794,
            "source": {
                "lat": 31.2589,
                "lng": 34.7978,
                "name": "Beersheba"
            },
            "target": {
                "lat": 31.3925,
                "lng": 34.7544,
                "name": "Rahat"
            }
        },
        {
            "driving_cost": 213146,
            "walking_cost": 220506,
            "source": {
                "lat": 31.2589,
                "lng": 34.7978,
                "name": "Beersheba"
            },
            "target": {
                "lat": 33.0036,
                "lng": 35.0925,
                "name": "Nahariyya"
            }
        },
        {
            "driving_cost": 204640,
            "walking_cost": 211807,
            "source": {
                "lat": 31.2589,
                "lng": 34.7978,
                "name": "Beersheba"
            },
            "target": {
                "lat": 32.9261,
                "lng": 35.0839,
                "name": "Akko"
            }
        },
        {
            "driving_cost": 215297,
            "walking_cost": 221455,
            "source": {
                "lat": 31.2589,
                "lng": 34.7978,
                "name": "Beersheba"
            },
            "target": {
                "lat": 32.9,
                "lng": 35.2833,
                "name": "Karmiel"
            }
        },
        {
            "driving_cost": 218821,
            "walking_cost": 221576,
            "source": {
                "lat": 31.2589,
                "lng": 34.7978,
                "name": "Beersheba"
            },
            "target": {
                "lat": 32.7897,
                "lng": 35.5247,
                "name": "Tiberias"
            }
        },
        {
            "driving_cost": 122872,
            "walking_cost": 127239,
            "source": {
                "lat": 31.2589,
                "lng": 34.7978,
                "name": "Beersheba"
            },
            "target": {
                "lat": 32.2667,
                "lng": 35.0,
                "name": "Et Taiyiba"
            }
        },
        {
            "driving_cost": 210711,
            "walking_cost": 215835,
            "source": {
                "lat": 31.2589,
                "lng": 34.7978,
                "name": "Beersheba"
            },
            "target": {
                "lat": 32.8667,
                "lng": 35.3,
                "name": "Sakhnin"
            }
        },
        {
            "driving_cost": 106872,
            "walking_cost": 92392,
            "source": {
                "lat": 31.2589,
                "lng": 34.7978,
                "name": "Beersheba"
            },
            "target": {
                "lat": 31.78336,
                "lng": 35.23388,
                "name": "East Jerusalem"
            }
        },
        {
            "driving_cost": 160144,
            "walking_cost": 157414,
            "source": {
                "lat": 31.2589,
                "lng": 34.7978,
                "name": "Beersheba"
            },
            "target": {
                "lat": 32.22111,
                "lng": 35.25444,
                "name": "Nablus"
            }
        },
        {
            "driving_cost": 118539,
            "walking_cost": 106969,
            "source": {
                "lat": 31.2589,
                "lng": 34.7978,
                "name": "Beersheba"
            },
            "target": {
                "lat": 31.89964,
                "lng": 35.20422,
                "name": "Ramallah"
            }
        },
        {
            "driving_cost": 93111,
            "walking_cost": 83021,
            "source": {
                "lat": 31.2589,
                "lng": 34.7978,
                "name": "Beersheba"
            },
            "target": {
                "lat": 31.70487,
                "lng": 35.20376,
                "name": "Bethlehem"
            }
        },
        {
            "driving_cost": 139085,
            "walking_cost": 126392,
            "source": {
                "lat": 31.2589,
                "lng": 34.7978,
                "name": "Beersheba"
            },
            "target": {
                "lat": 31.86667,
                "lng": 35.45,
                "name": "Jericho"
            }
        },
        {
            "driving_cost": 81550,
            "walking_cost": 78682,
            "source": {
                "lat": 31.2589,
                "lng": 34.7978,
                "name": "Beersheba"
            },
            "target": {
                "lat": 31.7,
                "lng": 35.11667,
                "name": "Battir"
            }
        },
        {
            "driving_cost": 129668,
            "walking_cost": 134037,
            "source": {
                "lat": 31.2589,
                "lng": 34.7978,
                "name": "Beersheba"
            },
            "target": {
                "lat": 32.31156,
                "lng": 35.0269,
                "name": "Tulkarm"
            }
        },
        {
            "driving_cost": 122041,
            "walking_cost": 124426,
            "source": {
                "lat": 31.2589,
                "lng": 34.7978,
                "name": "Beersheba"
            },
            "target": {
                "lat": 32.18966,
                "lng": 34.97063,
                "name": "Qalkilya"
            }
        },
        {
            "driving_cost": 119518,
            "walking_cost": 108232,
            "source": {
                "lat": 31.2589,
                "lng": 34.7978,
                "name": "Beersheba"
            },
            "target": {
                "lat": 31.91001,
                "lng": 35.21645,
                "name": "Al Bira"
            }
        },
        {
            "driving_cost": 0,
            "walking_cost": 0,
            "source": {
                "lat": 31.6658,
                "lng": 34.5664,
                "name": "Ashqelon"
            },
            "target": {
                "lat": 31.6658,
                "lng": 34.5664,
                "name": "Ashqelon"
            }
        },
        {
            "driving_cost": 72662,
            "walking_cost": 76783,
            "source": {
                "lat": 31.6658,
                "lng": 34.5664,
                "name": "Ashqelon"
            },
            "target": {
                "lat": 32.1858,
                "lng": 34.9077,
                "name": "Kefar Saba"
            }
        },
        {
            "driving_cost": 104563,
            "walking_cost": 106222,
            "source": {
                "lat": 31.6658,
                "lng": 34.5664,
                "name": "Ashqelon"
            },
            "target": {
                "lat": 32.45,
                "lng": 34.9167,
                "name": "Hadera"
            }
        },
        {
            "driving_cost": 57766,
            "walking_cost": 51441,
            "source": {
                "lat": 31.6658,
                "lng": 34.5664,
                "name": "Ashqelon"
            },
            "target": {
                "lat": 31.95,
                "lng": 34.9,
                "name": "Lod"
            }
        },
        {
            "driving_cost": 152855,
            "walking_cost": 154932,
            "source": {
                "lat": 31.6658,
                "lng": 34.5664,
                "name": "Ashqelon"
            },
            "target": {
                "lat": 32.7021,
                "lng": 35.2978,
                "name": "Nazareth"
            }
        },
        {
            "driving_cost": 54199,
            "walking_cost": 47649,
            "source": {
                "lat": 31.6658,
                "lng": 34.5664,
                "name": "Ashqelon"
            },
            "target": {
                "lat": 31.9318,
                "lng": 34.8736,
                "name": "Ramla"
            }
        },
        {
            "driving_cost": 127516,
            "walking_cost": 127602,
            "source": {
                "lat": 31.6658,
                "lng": 34.5664,
                "name": "Ashqelon"
            },
            "target": {
                "lat": 32.5158,
                "lng": 35.1525,
                "name": "Umm el Fahm"
            }
        },
        {
            "driving_cost": 299571,
            "walking_cost": 286818,
            "source": {
                "lat": 31.6658,
                "lng": 34.5664,
                "name": "Ashqelon"
            },
            "target": {
                "lat": 29.55,
                "lng": 34.95,
                "name": "Um Al Rashrash"
            }
        },
        {
            "driving_cost": 50418,
            "walking_cost": 45426,
            "source": {
                "lat": 31.6658,
                "lng": 34.5664,
                "name": "Ashqelon"
            },
            "target": {
                "lat": 31.3925,
                "lng": 34.7544,
                "name": "Rahat"
            }
        },
        {
            "driving_cost": 179836,
            "walking_cost": 181964,
            "source": {
                "lat": 31.6658,
                "lng": 34.5664,
                "name": "Ashqelon"
            },
            "target": {
                "lat": 33.0036,
                "lng": 35.0925,
                "name": "Nahariyya"
            }
        },
        {
            "driving_cost": 171331,
            "walking_cost": 173264,
            "source": {
                "lat": 31.6658,
                "lng": 34.5664,
                "name": "Ashqelon"
            },
            "target": {
                "lat": 32.9261,
                "lng": 35.0839,
                "name": "Akko"
            }
        },
        {
            "driving_cost": 181988,
            "walking_cost": 182912,
            "source": {
                "lat": 31.6658,
                "lng": 34.5664,
                "name": "Ashqelon"
            },
            "target": {
                "lat": 32.9,
                "lng": 35.2833,
                "name": "Karmiel"
            }
        },
        {
            "driving_cost": 185512,
            "walking_cost": 183033,
            "source": {
                "lat": 31.6658,
                "lng": 34.5664,
                "name": "Ashqelon"
            },
            "target": {
                "lat": 32.7897,
                "lng": 35.5247,
                "name": "Tiberias"
            }
        },
        {
            "driving_cost": 89562,
            "walking_cost": 88697,
            "source": {
                "lat": 31.6658,
                "lng": 34.5664,
                "name": "Ashqelon"
            },
            "target": {
                "lat": 32.2667,
                "lng": 35.0,
                "name": "Et Taiyiba"
            }
        },
        {
            "driving_cost": 177402,
            "walking_cost": 177292,
            "source": {
                "lat": 31.6658,
                "lng": 34.5664,
                "name": "Ashqelon"
            },
            "target": {
                "lat": 32.8667,
                "lng": 35.3,
                "name": "Sakhnin"
            }
        },
        {
            "driving_cost": 81550,
            "walking_cost": 76346,
            "source": {
                "lat": 31.6658,
                "lng": 34.5664,
                "name": "Ashqelon"
            },
            "target": {
                "lat": 31.78336,
                "lng": 35.23388,
                "name": "East Jerusalem"
            }
        },
        {
            "driving_cost": 126835,
            "walking_cost": 118872,
            "source": {
                "lat": 31.6658,
                "lng": 34.5664,
                "name": "Ashqelon"
            },
            "target": {
                "lat": 32.22111,
                "lng": 35.25444,
                "name": "Nablus"
            }
        },
        {
            "driving_cost": 91871,
            "walking_cost": 84222,
            "source": {
                "lat": 31.6658,
                "lng": 34.5664,
                "name": "Ashqelon"
            },
            "target": {
                "lat": 31.89964,
                "lng": 35.20422,
                "name": "Ramallah"
            }
        },
        {
            "driving_cost": 90639,
            "walking_cost": 75216,
            "source": {
                "lat": 31.6658,
                "lng": 34.5664,
                "name": "Ashqelon"
            },
            "target": {
                "lat": 31.70487,
                "lng": 35.20376,
                "name": "Bethlehem"
            }
        },
        {
            "driving_cost": 113764,
            "walking_cost": 109062,
            "source": {
                "lat": 31.6658,
                "lng": 34.5664,
                "name": "Ashqelon"
            },
            "target": {
                "lat": 31.86667,
                "lng": 35.45,
                "name": "Jericho"
            }
        },
        {
            "driving_cost": 68438,
            "walking_cost": 66208,
            "source": {
                "lat": 31.6658,
                "lng": 34.5664,
                "name": "Ashqelon"
            },
            "target": {
                "lat": 31.7,
                "lng": 35.11667,
                "name": "Battir"
            }
        },
        {
            "driving_cost": 96359,
            "walking_cost": 95494,
            "source": {
                "lat": 31.6658,
                "lng": 34.5664,
                "name": "Ashqelon"
            },
            "target": {
                "lat": 32.31156,
                "lng": 35.0269,
                "name": "Tulkarm"
            }
        },
        {
            "driving_cost": 88732,
            "walking_cost": 85884,
            "source": {
                "lat": 31.6658,
                "lng": 34.5664,
                "name": "Ashqelon"
            },
            "target": {
                "lat": 32.18966,
                "lng": 34.97063,
                "name": "Qalkilya"
            }
        },
        {
            "driving_cost": 92850,
            "walking_cost": 85485,
            "source": {
                "lat": 31.6658,
                "lng": 34.5664,
                "name": "Ashqelon"
            },
            "target": {
                "lat": 31.91001,
                "lng": 35.21645,
                "name": "Al Bira"
            }
        },
        {
            "driving_cost": 0,
            "walking_cost": 0,
            "source": {
                "lat": 32.1858,
                "lng": 34.9077,
                "name": "Kefar Saba"
            },
            "target": {
                "lat": 32.1858,
                "lng": 34.9077,
                "name": "Kefar Saba"
            }
        },
        {
            "driving_cost": 31918,
            "walking_cost": 31749,
            "source": {
                "lat": 32.1858,
                "lng": 34.9077,
                "name": "Kefar Saba"
            },
            "target": {
                "lat": 32.45,
                "lng": 34.9167,
                "name": "Hadera"
            }
        },
        {
            "driving_cost": 36616,
            "walking_cost": 28547,
            "source": {
                "lat": 32.1858,
                "lng": 34.9077,
                "name": "Kefar Saba"
            },
            "target": {
                "lat": 31.95,
                "lng": 34.9,
                "name": "Lod"
            }
        },
        {
            "driving_cost": 80468,
            "walking_cost": 79256,
            "source": {
                "lat": 32.1858,
                "lng": 34.9077,
                "name": "Kefar Saba"
            },
            "target": {
                "lat": 32.7021,
                "lng": 35.2978,
                "name": "Nazareth"
            }
        },
        {
            "driving_cost": 33942,
            "walking_cost": 32345,
            "source": {
                "lat": 32.1858,
                "lng": 34.9077,
                "name": "Kefar Saba"
            },
            "target": {
                "lat": 31.9318,
                "lng": 34.8736,
                "name": "Ramla"
            }
        },
        {
            "driving_cost": 55129,
            "walking_cost": 51926,
            "source": {
                "lat": 32.1858,
                "lng": 34.9077,
                "name": "Kefar Saba"
            },
            "target": {
                "lat": 32.5158,
                "lng": 35.1525,
                "name": "Umm el Fahm"
            }
        },
        {
            "driving_cost": 351344,
            "walking_cost": 343640,
            "source": {
                "lat": 32.1858,
                "lng": 34.9077,
                "name": "Kefar Saba"
            },
            "target": {
                "lat": 29.55,
                "lng": 34.95,
                "name": "Um Al Rashrash"
            }
        },
        {
            "driving_cost": 102191,
            "walking_cost": 101443,
            "source": {
                "lat": 32.1858,
                "lng": 34.9077,
                "name": "Kefar Saba"
            },
            "target": {
                "lat": 31.3925,
                "lng": 34.7544,
                "name": "Rahat"
            }
        },
        {
            "driving_cost": 107450,
            "walking_cost": 107866,
            "source": {
                "lat": 32.1858,
                "lng": 34.9077,
                "name": "Kefar Saba"
            },
            "target": {
                "lat": 33.0036,
                "lng": 35.0925,
                "name": "Nahariyya"
            }
        },
        {
            "driving_cost": 98945,
            "walking_cost": 99167,
            "source": {
                "lat": 32.1858,
                "lng": 34.9077,
                "name": "Kefar Saba"
            },
            "target": {
                "lat": 32.9261,
                "lng": 35.0839,
                "name": "Akko"
            }
        },
        {
            "driving_cost": 109602,
            "walking_cost": 107236,
            "source": {
                "lat": 32.1858,
                "lng": 34.9077,
                "name": "Kefar Saba"
            },
            "target": {
                "lat": 32.9,
                "lng": 35.2833,
                "name": "Karmiel"
            }
        },
        {
            "driving_cost": 113125,
            "walking_cost": 107357,
            "source": {
                "lat": 32.1858,
                "lng": 34.9077,
                "name": "Kefar Saba"
            },
            "target": {
                "lat": 32.7897,
                "lng": 35.5247,
                "name": "Tiberias"
            }
        },
        {
            "driving_cost": 14955,
            "walking_cost": 14011,
            "source": {
                "lat": 32.1858,
                "lng": 34.9077,
                "name": "Kefar Saba"
            },
            "target": {
                "lat": 32.2667,
                "lng": 35.0,
                "name": "Et Taiyiba"
            }
        },
        {
            "driving_cost": 105016,
            "walking_cost": 101616,
            "source": {
                "lat": 32.1858,
                "lng": 34.9077,
                "name": "Kefar Saba"
            },
            "target": {
                "lat": 32.8667,
                "lng": 35.3,
                "name": "Sakhnin"
            }
        },
        {
            "driving_cost": 75896,
            "walking_cost": 70732,
            "source": {
                "lat": 32.1858,
                "lng": 34.9077,
                "name": "Kefar Saba"
            },
            "target": {
                "lat": 31.78336,
                "lng": 35.23388,
                "name": "East Jerusalem"
            }
        },
        {
            "driving_cost": 52228,
            "walking_cost": 45047,
            "source": {
                "lat": 32.1858,
                "lng": 34.9077,
                "name": "Kefar Saba"
            },
            "target": {
                "lat": 32.22111,
                "lng": 35.25444,
                "name": "Nablus"
            }
        },
        {
            "driving_cost": 71197,
            "walking_cost": 62364,
            "source": {
                "lat": 32.1858,
                "lng": 34.9077,
                "name": "Kefar Saba"
            },
            "target": {
                "lat": 31.89964,
                "lng": 35.20422,
                "name": "Ramallah"
            }
        },
        {
            "driving_cost": 84985,
            "walking_cost": 79920,
            "source": {
                "lat": 32.1858,
                "lng": 34.9077,
                "name": "Kefar Saba"
            },
            "target": {
                "lat": 31.70487,
                "lng": 35.20376,
                "name": "Bethlehem"
            }
        },
        {
            "driving_cost": 108109,
            "walking_cost": 95724,
            "source": {
                "lat": 32.1858,
                "lng": 34.9077,
                "name": "Kefar Saba"
            },
            "target": {
                "lat": 31.86667,
                "lng": 35.45,
                "name": "Jericho"
            }
        },
        {
            "driving_cost": 79889,
            "walking_cost": 76051,
            "source": {
                "lat": 32.1858,
                "lng": 34.9077,
                "name": "Kefar Saba"
            },
            "target": {
                "lat": 31.7,
                "lng": 35.11667,
                "name": "Battir"
            }
        },
        {
            "driving_cost": 21752,
            "walking_cost": 20912,
            "source": {
                "lat": 32.1858,
                "lng": 34.9077,
                "name": "Kefar Saba"
            },
            "target": {
                "lat": 32.31156,
                "lng": 35.0269,
                "name": "Tulkarm"
            }
        },
        {
            "driving_cost": 16835,
            "walking_cost": 12875,
            "source": {
                "lat": 32.1858,
                "lng": 34.9077,
                "name": "Kefar Saba"
            },
            "target": {
                "lat": 32.18966,
                "lng": 34.97063,
                "name": "Qalkilya"
            }
        },
        {
            "driving_cost": 72176,
            "walking_cost": 60409,
            "source": {
                "lat": 32.1858,
                "lng": 34.9077,
                "name": "Kefar Saba"
            },
            "target": {
                "lat": 31.91001,
                "lng": 35.21645,
                "name": "Al Bira"
            }
        },
        {
            "driving_cost": 0,
            "walking_cost": 0,
            "source": {
                "lat": 32.45,
                "lng": 34.9167,
                "name": "Hadera"
            },
            "target": {
                "lat": 32.45,
                "lng": 34.9167,
                "name": "Hadera"
            }
        },
        {
            "driving_cost": 76468,
            "walking_cost": 57938,
            "source": {
                "lat": 32.45,
                "lng": 34.9167,
                "name": "Hadera"
            },
            "target": {
                "lat": 31.95,
                "lng": 34.9,
                "name": "Lod"
            }
        },
        {
            "driving_cost": 56254,
            "walking_cost": 54936,
            "source": {
                "lat": 32.45,
                "lng": 34.9167,
                "name": "Hadera"
            },
            "target": {
                "lat": 32.7021,
                "lng": 35.2978,
                "name": "Nazareth"
            }
        },
        {
            "driving_cost": 68232,
            "walking_cost": 61737,
            "source": {
                "lat": 32.45,
                "lng": 34.9167,
                "name": "Hadera"
            },
            "target": {
                "lat": 31.9318,
                "lng": 34.8736,
                "name": "Ramla"
            }
        },
        {
            "driving_cost": 30916,
            "walking_cost": 27606,
            "source": {
                "lat": 32.45,
                "lng": 34.9167,
                "name": "Hadera"
            },
            "target": {
                "lat": 32.5158,
                "lng": 35.1525,
                "name": "Umm el Fahm"
            }
        },
        {
            "driving_cost": 391197,
            "walking_cost": 373032,
            "source": {
                "lat": 32.45,
                "lng": 34.9167,
                "name": "Hadera"
            },
            "target": {
                "lat": 29.55,
                "lng": 34.95,
                "name": "Um Al Rashrash"
            }
        },
        {
            "driving_cost": 142043,
            "walking_cost": 130835,
            "source": {
                "lat": 32.45,
                "lng": 34.9167,
                "name": "Hadera"
            },
            "target": {
                "lat": 31.3925,
                "lng": 34.7544,
                "name": "Rahat"
            }
        },
        {
            "driving_cost": 77824,
            "walking_cost": 76926,
            "source": {
                "lat": 32.45,
                "lng": 34.9167,
                "name": "Hadera"
            },
            "target": {
                "lat": 33.0036,
                "lng": 35.0925,
                "name": "Nahariyya"
            }
        },
        {
            "driving_cost": 69319,
            "walking_cost": 68226,
            "source": {
                "lat": 32.45,
                "lng": 34.9167,
                "name": "Hadera"
            },
            "target": {
                "lat": 32.9261,
                "lng": 35.0839,
                "name": "Akko"
            }
        },
        {
            "driving_cost": 85178,
            "walking_cost": 80198,
            "source": {
                "lat": 32.45,
                "lng": 34.9167,
                "name": "Hadera"
            },
            "target": {
                "lat": 32.9,
                "lng": 35.2833,
                "name": "Karmiel"
            }
        },
        {
            "driving_cost": 88701,
            "walking_cost": 83037,
            "source": {
                "lat": 32.45,
                "lng": 34.9167,
                "name": "Hadera"
            },
            "target": {
                "lat": 32.7897,
                "lng": 35.5247,
                "name": "Tiberias"
            }
        },
        {
            "driving_cost": 30425,
            "walking_cost": 28431,
            "source": {
                "lat": 32.45,
                "lng": 34.9167,
                "name": "Hadera"
            },
            "target": {
                "lat": 32.2667,
                "lng": 35.0,
                "name": "Et Taiyiba"
            }
        },
        {
            "driving_cost": 80592,
            "walking_cost": 74578,
            "source": {
                "lat": 32.45,
                "lng": 34.9167,
                "name": "Hadera"
            },
            "target": {
                "lat": 32.8667,
                "lng": 35.3,
                "name": "Sakhnin"
            }
        },
        {
            "driving_cost": 115748,
            "walking_cost": 100124,
            "source": {
                "lat": 32.45,
                "lng": 34.9167,
                "name": "Hadera"
            },
            "target": {
                "lat": 31.78336,
                "lng": 35.23388,
                "name": "East Jerusalem"
            }
        },
        {
            "driving_cost": 63231,
            "walking_cost": 56445,
            "source": {
                "lat": 32.45,
                "lng": 34.9167,
                "name": "Hadera"
            },
            "target": {
                "lat": 32.22111,
                "lng": 35.25444,
                "name": "Nablus"
            }
        },
        {
            "driving_cost": 111050,
            "walking_cost": 92238,
            "source": {
                "lat": 32.45,
                "lng": 34.9167,
                "name": "Hadera"
            },
            "target": {
                "lat": 31.89964,
                "lng": 35.20422,
                "name": "Ramallah"
            }
        },
        {
            "driving_cost": 124837,
            "walking_cost": 109312,
            "source": {
                "lat": 32.45,
                "lng": 34.9167,
                "name": "Hadera"
            },
            "target": {
                "lat": 31.70487,
                "lng": 35.20376,
                "name": "Bethlehem"
            }
        },
        {
            "driving_cost": 147962,
            "walking_cost": 125116,
            "source": {
                "lat": 32.45,
                "lng": 34.9167,
                "name": "Hadera"
            },
            "target": {
                "lat": 31.86667,
                "lng": 35.45,
                "name": "Jericho"
            }
        },
        {
            "driving_cost": 119742,
            "walking_cost": 105443,
            "source": {
                "lat": 32.45,
                "lng": 34.9167,
                "name": "Hadera"
            },
            "target": {
                "lat": 31.7,
                "lng": 35.11667,
                "name": "Battir"
            }
        },
        {
            "driving_cost": 32754,
            "walking_cost": 32310,
            "source": {
                "lat": 32.45,
                "lng": 34.9167,
                "name": "Hadera"
            },
            "target": {
                "lat": 32.31156,
                "lng": 35.0269,
                "name": "Tulkarm"
            }
        },
        {
            "driving_cost": 57252,
            "walking_cost": 38104,
            "source": {
                "lat": 32.45,
                "lng": 34.9167,
                "name": "Hadera"
            },
            "target": {
                "lat": 32.18966,
                "lng": 34.97063,
                "name": "Qalkilya"
            }
        },
        {
            "driving_cost": 112029,
            "walking_cost": 90284,
            "source": {
                "lat": 32.45,
                "lng": 34.9167,
                "name": "Hadera"
            },
            "target": {
                "lat": 31.91001,
                "lng": 35.21645,
                "name": "Al Bira"
            }
        },
        {
            "driving_cost": 0,
            "walking_cost": 0,
            "source": {
                "lat": 31.95,
                "lng": 34.9,
                "name": "Lod"
            },
            "target": {
                "lat": 31.95,
                "lng": 34.9,
                "name": "Lod"
            }
        },
        {
            "driving_cost": 107417,
            "walking_cost": 106680,
            "source": {
                "lat": 31.95,
                "lng": 34.9,
                "name": "Lod"
            },
            "target": {
                "lat": 32.7021,
                "lng": 35.2978,
                "name": "Nazareth"
            }
        },
        {
            "driving_cost": 4782,
            "walking_cost": 4607,
            "source": {
                "lat": 31.95,
                "lng": 34.9,
                "name": "Lod"
            },
            "target": {
                "lat": 31.9318,
                "lng": 34.8736,
                "name": "Ramla"
            }
        },
        {
            "driving_cost": 82078,
            "walking_cost": 79350,
            "source": {
                "lat": 31.95,
                "lng": 34.9,
                "name": "Lod"
            },
            "target": {
                "lat": 32.5158,
                "lng": 35.1525,
                "name": "Umm el Fahm"
            }
        },
        {
            "driving_cost": 317507,
            "walking_cost": 316049,
            "source": {
                "lat": 31.95,
                "lng": 34.9,
                "name": "Lod"
            },
            "target": {
                "lat": 29.55,
                "lng": 34.95,
                "name": "Um Al Rashrash"
            }
        },
        {
            "driving_cost": 68353,
            "walking_cost": 73852,
            "source": {
                "lat": 31.95,
                "lng": 34.9,
                "name": "Lod"
            },
            "target": {
                "lat": 31.3925,
                "lng": 34.7544,
                "name": "Rahat"
            }
        },
        {
            "driving_cost": 134398,
            "walking_cost": 133711,
            "source": {
                "lat": 31.95,
                "lng": 34.9,
                "name": "Lod"
            },
            "target": {
                "lat": 33.0036,
                "lng": 35.0925,
                "name": "Nahariyya"
            }
        },
        {
            "driving_cost": 125893,
            "walking_cost": 125012,
            "source": {
                "lat": 31.95,
                "lng": 34.9,
                "name": "Lod"
            },
            "target": {
                "lat": 32.9261,
                "lng": 35.0839,
                "name": "Akko"
            }
        },
        {
            "driving_cost": 136550,
            "walking_cost": 134660,
            "source": {
                "lat": 31.95,
                "lng": 34.9,
                "name": "Lod"
            },
            "target": {
                "lat": 32.9,
                "lng": 35.2833,
                "name": "Karmiel"
            }
        },
        {
            "driving_cost": 140074,
            "walking_cost": 134781,
            "source": {
                "lat": 31.95,
                "lng": 34.9,
                "name": "Lod"
            },
            "target": {
                "lat": 32.7897,
                "lng": 35.5247,
                "name": "Tiberias"
            }
        },
        {
            "driving_cost": 44124,
            "walking_cost": 40444,
            "source": {
                "lat": 31.95,
                "lng": 34.9,
                "name": "Lod"
            },
            "target": {
                "lat": 32.2667,
                "lng": 35.0,
                "name": "Et Taiyiba"
            }
        },
        {
            "driving_cost": 131964,
            "walking_cost": 129040,
            "source": {
                "lat": 31.95,
                "lng": 34.9,
                "name": "Lod"
            },
            "target": {
                "lat": 32.8667,
                "lng": 35.3,
                "name": "Sakhnin"
            }
        },
        {
            "driving_cost": 48009,
            "walking_cost": 45075,
            "source": {
                "lat": 31.95,
                "lng": 34.9,
                "name": "Lod"
            },
            "target": {
                "lat": 31.78336,
                "lng": 35.23388,
                "name": "East Jerusalem"
            }
        },
        {
            "driving_cost": 81397,
            "walking_cost": 70619,
            "source": {
                "lat": 31.95,
                "lng": 34.9,
                "name": "Lod"
            },
            "target": {
                "lat": 32.22111,
                "lng": 35.25444,
                "name": "Nablus"
            }
        },
        {
            "driving_cost": 43702,
            "walking_cost": 41234,
            "source": {
                "lat": 31.95,
                "lng": 34.9,
                "name": "Lod"
            },
            "target": {
                "lat": 31.89964,
                "lng": 35.20422,
                "name": "Ramallah"
            }
        },
        {
            "driving_cost": 57098,
            "walking_cost": 54263,
            "source": {
                "lat": 31.95,
                "lng": 34.9,
                "name": "Lod"
            },
            "target": {
                "lat": 31.70487,
                "lng": 35.20376,
                "name": "Bethlehem"
            }
        },
        {
            "driving_cost": 80223,
            "walking_cost": 70100,
            "source": {
                "lat": 31.95,
                "lng": 34.9,
                "name": "Lod"
            },
            "target": {
                "lat": 31.86667,
                "lng": 35.45,
                "name": "Jericho"
            }
        },
        {
            "driving_cost": 52003,
            "walking_cost": 48313,
            "source": {
                "lat": 31.95,
                "lng": 34.9,
                "name": "Lod"
            },
            "target": {
                "lat": 31.7,
                "lng": 35.11667,
                "name": "Battir"
            }
        },
        {
            "driving_cost": 50921,
            "walking_cost": 47242,
            "source": {
                "lat": 31.95,
                "lng": 34.9,
                "name": "Lod"
            },
            "target": {
                "lat": 32.31156,
                "lng": 35.0269,
                "name": "Tulkarm"
            }
        },
        {
            "driving_cost": 43294,
            "walking_cost": 37631,
            "source": {
                "lat": 31.95,
                "lng": 34.9,
                "name": "Lod"
            },
            "target": {
                "lat": 32.18966,
                "lng": 34.97063,
                "name": "Qalkilya"
            }
        },
        {
            "driving_cost": 44681,
            "walking_cost": 42497,
            "source": {
                "lat": 31.95,
                "lng": 34.9,
                "name": "Lod"
            },
            "target": {
                "lat": 31.91001,
                "lng": 35.21645,
                "name": "Al Bira"
            }
        },
        {
            "driving_cost": 0,
            "walking_cost": 0,
            "source": {
                "lat": 32.7021,
                "lng": 35.2978,
                "name": "Nazareth"
            },
            "target": {
                "lat": 32.7021,
                "lng": 35.2978,
                "name": "Nazareth"
            }
        },
        {
            "driving_cost": 115387,
            "walking_cost": 110491,
            "source": {
                "lat": 32.7021,
                "lng": 35.2978,
                "name": "Nazareth"
            },
            "target": {
                "lat": 31.9318,
                "lng": 34.8736,
                "name": "Ramla"
            }
        },
        {
            "driving_cost": 32689,
            "walking_cost": 30228,
            "source": {
                "lat": 32.7021,
                "lng": 35.2978,
                "name": "Nazareth"
            },
            "target": {
                "lat": 32.5158,
                "lng": 35.1525,
                "name": "Umm el Fahm"
            }
        },
        {
            "driving_cost": 423150,
            "walking_cost": 403462,
            "source": {
                "lat": 32.7021,
                "lng": 35.2978,
                "name": "Nazareth"
            },
            "target": {
                "lat": 29.55,
                "lng": 34.95,
                "name": "Um Al Rashrash"
            }
        },
        {
            "driving_cost": 173996,
            "walking_cost": 179590,
            "source": {
                "lat": 32.7021,
                "lng": 35.2978,
                "name": "Nazareth"
            },
            "target": {
                "lat": 31.3925,
                "lng": 34.7544,
                "name": "Rahat"
            }
        },
        {
            "driving_cost": 47866,
            "walking_cost": 46783,
            "source": {
                "lat": 32.7021,
                "lng": 35.2978,
                "name": "Nazareth"
            },
            "target": {
                "lat": 33.0036,
                "lng": 35.0925,
                "name": "Nahariyya"
            }
        },
        {
            "driving_cost": 39361,
            "walking_cost": 38083,
            "source": {
                "lat": 32.7021,
                "lng": 35.2978,
                "name": "Nazareth"
            },
            "target": {
                "lat": 32.9261,
                "lng": 35.0839,
                "name": "Akko"
            }
        },
        {
            "driving_cost": 41039,
            "walking_cost": 31794,
            "source": {
                "lat": 32.7021,
                "lng": 35.2978,
                "name": "Nazareth"
            },
            "target": {
                "lat": 32.9,
                "lng": 35.2833,
                "name": "Karmiel"
            }
        },
        {
            "driving_cost": 31235,
            "walking_cost": 27774,
            "source": {
                "lat": 32.7021,
                "lng": 35.2978,
                "name": "Nazareth"
            },
            "target": {
                "lat": 32.7897,
                "lng": 35.5247,
                "name": "Tiberias"
            }
        },
        {
            "driving_cost": 70948,
            "walking_cost": 68297,
            "source": {
                "lat": 32.7021,
                "lng": 35.2978,
                "name": "Nazareth"
            },
            "target": {
                "lat": 32.2667,
                "lng": 35.0,
                "name": "Et Taiyiba"
            }
        },
        {
            "driving_cost": 35137,
            "walking_cost": 25778,
            "source": {
                "lat": 32.7021,
                "lng": 35.2978,
                "name": "Nazareth"
            },
            "target": {
                "lat": 32.8667,
                "lng": 35.3,
                "name": "Sakhnin"
            }
        },
        {
            "driving_cost": 147701,
            "walking_cost": 134566,
            "source": {
                "lat": 32.7021,
                "lng": 35.2978,
                "name": "Nazareth"
            },
            "target": {
                "lat": 31.78336,
                "lng": 35.23388,
                "name": "East Jerusalem"
            }
        },
        {
            "driving_cost": 103753,
            "walking_cost": 67523,
            "source": {
                "lat": 32.7021,
                "lng": 35.2978,
                "name": "Nazareth"
            },
            "target": {
                "lat": 32.22111,
                "lng": 35.25444,
                "name": "Nablus"
            }
        },
        {
            "driving_cost": 143003,
            "walking_cost": 120806,
            "source": {
                "lat": 32.7021,
                "lng": 35.2978,
                "name": "Nazareth"
            },
            "target": {
                "lat": 31.89964,
                "lng": 35.20422,
                "name": "Ramallah"
            }
        },
        {
            "driving_cost": 156790,
            "walking_cost": 144420,
            "source": {
                "lat": 32.7021,
                "lng": 35.2978,
                "name": "Nazareth"
            },
            "target": {
                "lat": 31.70487,
                "lng": 35.20376,
                "name": "Bethlehem"
            }
        },
        {
            "driving_cost": 140081,
            "walking_cost": 137294,
            "source": {
                "lat": 32.7021,
                "lng": 35.2978,
                "name": "Nazareth"
            },
            "target": {
                "lat": 31.86667,
                "lng": 35.45,
                "name": "Jericho"
            }
        },
        {
            "driving_cost": 151695,
            "walking_cost": 154197,
            "source": {
                "lat": 32.7021,
                "lng": 35.2978,
                "name": "Nazareth"
            },
            "target": {
                "lat": 31.7,
                "lng": 35.11667,
                "name": "Battir"
            }
        },
        {
            "driving_cost": 73277,
            "walking_cost": 64663,
            "source": {
                "lat": 32.7021,
                "lng": 35.2978,
                "name": "Nazareth"
            },
            "target": {
                "lat": 32.31156,
                "lng": 35.0269,
                "name": "Tulkarm"
            }
        },
        {
            "driving_cost": 89205,
            "walking_cost": 79661,
            "source": {
                "lat": 32.7021,
                "lng": 35.2978,
                "name": "Nazareth"
            },
            "target": {
                "lat": 32.18966,
                "lng": 34.97063,
                "name": "Qalkilya"
            }
        },
        {
            "driving_cost": 143982,
            "walking_cost": 118953,
            "source": {
                "lat": 32.7021,
                "lng": 35.2978,
                "name": "Nazareth"
            },
            "target": {
                "lat": 31.91001,
                "lng": 35.21645,
                "name": "Al Bira"
            }
        },
        {
            "driving_cost": 0,
            "walking_cost": 0,
            "source": {
                "lat": 31.9318,
                "lng": 34.8736,
                "name": "Ramla"
            },
            "target": {
                "lat": 31.9318,
                "lng": 34.8736,
                "name": "Ramla"
            }
        },
        {
            "driving_cost": 90053,
            "walking_cost": 83161,
            "source": {
                "lat": 31.9318,
                "lng": 34.8736,
                "name": "Ramla"
            },
            "target": {
                "lat": 32.5158,
                "lng": 35.1525,
                "name": "Umm el Fahm"
            }
        },
        {
            "driving_cost": 317575,
            "walking_cost": 312253,
            "source": {
                "lat": 31.9318,
                "lng": 34.8736,
                "name": "Ramla"
            },
            "target": {
                "lat": 29.55,
                "lng": 34.95,
                "name": "Um Al Rashrash"
            }
        },
        {
            "driving_cost": 68422,
            "walking_cost": 70056,
            "source": {
                "lat": 31.9318,
                "lng": 34.8736,
                "name": "Ramla"
            },
            "target": {
                "lat": 31.3925,
                "lng": 34.7544,
                "name": "Rahat"
            }
        },
        {
            "driving_cost": 142373,
            "walking_cost": 137522,
            "source": {
                "lat": 31.9318,
                "lng": 34.8736,
                "name": "Ramla"
            },
            "target": {
                "lat": 33.0036,
                "lng": 35.0925,
                "name": "Nahariyya"
            }
        },
        {
            "driving_cost": 133868,
            "walking_cost": 128822,
            "source": {
                "lat": 31.9318,
                "lng": 34.8736,
                "name": "Ramla"
            },
            "target": {
                "lat": 32.9261,
                "lng": 35.0839,
                "name": "Akko"
            }
        },
        {
            "driving_cost": 144525,
            "walking_cost": 138470,
            "source": {
                "lat": 31.9318,
                "lng": 34.8736,
                "name": "Ramla"
            },
            "target": {
                "lat": 32.9,
                "lng": 35.2833,
                "name": "Karmiel"
            }
        },
        {
            "driving_cost": 148049,
            "walking_cost": 138591,
            "source": {
                "lat": 31.9318,
                "lng": 34.8736,
                "name": "Ramla"
            },
            "target": {
                "lat": 32.7897,
                "lng": 35.5247,
                "name": "Tiberias"
            }
        },
        {
            "driving_cost": 52099,
            "walking_cost": 44255,
            "source": {
                "lat": 31.9318,
                "lng": 34.8736,
                "name": "Ramla"
            },
            "target": {
                "lat": 32.2667,
                "lng": 35.0,
                "name": "Et Taiyiba"
            }
        },
        {
            "driving_cost": 139939,
            "walking_cost": 132850,
            "source": {
                "lat": 31.9318,
                "lng": 34.8736,
                "name": "Ramla"
            },
            "target": {
                "lat": 32.8667,
                "lng": 35.3,
                "name": "Sakhnin"
            }
        },
        {
            "driving_cost": 47541,
            "walking_cost": 49472,
            "source": {
                "lat": 31.9318,
                "lng": 34.8736,
                "name": "Ramla"
            },
            "target": {
                "lat": 31.78336,
                "lng": 35.23388,
                "name": "East Jerusalem"
            }
        },
        {
            "driving_cost": 89372,
            "walking_cost": 74430,
            "source": {
                "lat": 31.9318,
                "lng": 34.8736,
                "name": "Ramla"
            },
            "target": {
                "lat": 32.22111,
                "lng": 35.25444,
                "name": "Nablus"
            }
        },
        {
            "driving_cost": 47728,
            "walking_cost": 45632,
            "source": {
                "lat": 31.9318,
                "lng": 34.8736,
                "name": "Ramla"
            },
            "target": {
                "lat": 31.89964,
                "lng": 35.20422,
                "name": "Ramallah"
            }
        },
        {
            "driving_cost": 56630,
            "walking_cost": 54282,
            "source": {
                "lat": 31.9318,
                "lng": 34.8736,
                "name": "Ramla"
            },
            "target": {
                "lat": 31.70487,
                "lng": 35.20376,
                "name": "Bethlehem"
            }
        },
        {
            "driving_cost": 79754,
            "walking_cost": 74498,
            "source": {
                "lat": 31.9318,
                "lng": 34.8736,
                "name": "Ramla"
            },
            "target": {
                "lat": 31.86667,
                "lng": 35.45,
                "name": "Jericho"
            }
        },
        {
            "driving_cost": 51535,
            "walking_cost": 46047,
            "source": {
                "lat": 31.9318,
                "lng": 34.8736,
                "name": "Ramla"
            },
            "target": {
                "lat": 31.7,
                "lng": 35.11667,
                "name": "Battir"
            }
        },
        {
            "driving_cost": 58896,
            "walking_cost": 51052,
            "source": {
                "lat": 31.9318,
                "lng": 34.8736,
                "name": "Ramla"
            },
            "target": {
                "lat": 32.31156,
                "lng": 35.0269,
                "name": "Tulkarm"
            }
        },